[
  {
    "id": 1,
    "nombre": "Museo Nacional de Bellas Artes",
    "categoria": "museo",
    "lat": -33.4358,
    "lng": -70.6394,
    "direccion": "José Miguel de la Barra 650, Santiago"
  },
  {
    "id": 2,
    "nombre": "Plaza de Armas",
    "categoria": "plaza",
    "lat": -33.4372,
    "lng": -70.6506,
    "direccion": "Plaza de Armas, Santiago Centro"
  },
  {
    "id": 3,
    "nombre": "Cerro San Cristóbal",
    "categoria": "parque",
    "lat": -33.4256,
    "lng": -70.6344,
    "direccion": "Pío Nono 445, Recoleta"
  },
  {
    "id": 4,
    "nombre": "Mercado Central",
    "categoria": "mercado",
    "lat": -33.4339,
    "lng": -70.6521,
    "direccion": "San Pablo 967, Santiago"
  },
  {
    "id": 5,
    "nombre": "Parque Forestal",
    "categoria": "parque",
    "lat": -33.4365,
    "lng": -70.6398,
    "direccion": "Parque Forestal, Santiago"
  }
]